<?xml version="1.0" encoding="UTF-8" standalone="yes"?>
<trashCans xmlns:xs="http://www.w3.org/2001/XMLSchema-instance" xs:noNamespaceSchemaLocation="greenBin.xsd">
  <trashCan id="1">
    <lieu>
      <adresse>Avenue Habib Bourguiba</adresse>
      <coordonnees>
        <latitude>34.741</latitude>
        <longitude>10.760</longitude>
      </coordonnees>
    </lieu>
    <typeDechet>plastique</typeDechet>
    <status>vide</status>
  </trashCan>
  <trashCan id="2">
    <lieu>
      <adresse>Sfax Medina</adresse>
      <coordonnees>
        <latitude>34.742</latitude>
        <longitude>10.760</longitude>
      </coordonnees>
    </lieu>
    <typeDechet>plastique</typeDechet>
    <status>vide</status>
  </trashCan>
  <trashCan id="3">
    <lieu>
      <adresse>Sfax Port</adresse>
      <coordonnees>
        <latitude>34.731</latitude>
        <longitude>10.770</longitude>
      </coordonnees>
    </lieu>
    <typeDechet>plastique</typeDechet>
    <status>vide</status>
  </trashCan>
  <trashCan id="4">
    <lieu>
      <adresse>Avenue Majida Boulila</adresse>
      <coordonnees>
        <latitude>34.741</latitude>
        <longitude>10.752</longitude>
      </coordonnees>
    </lieu>
    <typeDechet>plastique</typeDechet>
    <status>pleine</status>
  </trashCan>
  <trashCan id="5">
    <lieu>
      <adresse>Rue Ali Belhouane</adresse>
      <coordonnees>
        <latitude>34.739</latitude>
        <longitude>10.766</longitude>
      </coordonnees>
    </lieu>
    <typeDechet>plastique</typeDechet>
    <status>moitie</status>
  </trashCan>
  <trashCan id="6">
    <lieu>
      <adresse>Bab Jebli</adresse>
      <coordonnees>
        <latitude>34.743</latitude>
        <longitude>10.758</longitude>
      </coordonnees>
    </lieu>
    <typeDechet>plastique</typeDechet>
    <status>vide</status>
  </trashCan>
  <trashCan id="7">
    <lieu>
      <adresse>Sakiet Ezzit</adresse>
      <coordonnees>
        <latitude>34.771</latitude>
        <longitude>10.740</longitude>
      </coordonnees>
    </lieu>
    <typeDechet>plastique</typeDechet>
    <status>moitie</status>
  </trashCan>
  <trashCan id="8">
    <lieu>
      <adresse>Sakiet Eddaier</adresse>
      <coordonnees>
        <latitude>34.757</latitude>
        <longitude>10.800</longitude>
      </coordonnees>
    </lieu>
    <typeDechet>plastique</typeDechet>
    <status>pleine</status>
  </trashCan>
  <trashCan id="9">
    <lieu>
      <adresse>Route Taniour</adresse>
      <coordonnees>
        <latitude>34.735</latitude>
        <longitude>10.780</longitude>
      </coordonnees>
    </lieu>
    <typeDechet>plastique</typeDechet>
    <status>vide</status>
  </trashCan>
  <trashCan id="10">
    <lieu>
      <adresse>Route Gremda</adresse>
      <coordonnees>
        <latitude>34.730</latitude>
        <longitude>10.750</longitude>
      </coordonnees>
    </lieu>
    <typeDechet>plastique</typeDechet>
    <status>moitie</status>
  </trashCan>
</trashCans>